{"id":71848,"campusId":51098,"name":"Mercy Medical Center - Merced","latitude":37.339977,"longitude":-120.467296,"streetAddress":"333 Mercy Avenue, Merced, CA, United States","createdAt":"2019-10-10T19:49:41Z","updatedAt":"2019-10-10T19:49:41Z","floors":[{"id":350426,"name":"First Floor","originalMapUrl":null,"level":1,"isOutdoor":false,"width":0.0,"height":0.0,"offsetX":0,"offsetY":0,"locationMapHierarchy":"Mercy Medical Center Merced>Mercy Medical Center Merced Building>First Floor","createdAt":"2019-10-10T19:49:42Z","updatedAt":"2019-10-10T19:49:42Z","buildingId":71848,"resources":[{"id":248153,"floorId":350426,"pdfUrl":"https://lbs-prod.s3.amazonaws.com/venues/f81bca97-18b7-42fb-9a61-aa5b7c2d0ea6/maps/MMC-M_CampusMap1.pdf","svgUrl":"https://lbs-prod.s3.amazonaws.com/venues/f81bca97-18b7-42fb-9a61-aa5b7c2d0ea6/maps/MMC-M_CampusMap1.svg","zoomLevel":1,"createdAt":"2019-10-10T19:50:56Z","updatedAt":"2019-10-10T19:50:56Z","externalId":248153}],"venueGuid":"102b8dfa-1e02-4199-abcd-8cd090fecb74","maxZoomLevel":1,"referencePoints":{"rotation":0.0,"topLeft":{"latitude":37.342191,"longitude":-120.469484},"topRight":{"latitude":37.342191,"longitude":-120.464592},"bottomLeft":{"latitude":37.337158,"longitude":-120.469484},"bottomRight":{"latitude":37.337158,"longitude":-120.464592},"portal":{"topRight":{"latitude":37.342191,"longitude":-120.464592},"bottomLeft":{"latitude":37.337158,"longitude":-120.469484}}},"externalId":350426,"scalePct":100,"isDefault":false},{"id":350427,"name":"Garden Level","originalMapUrl":null,"level":-1,"isOutdoor":false,"width":0.0,"height":0.0,"offsetX":0,"offsetY":0,"locationMapHierarchy":"Mercy Medical Center Merced>Mercy Medical Center Merced Building>Garden Level","createdAt":"2019-10-10T19:49:42Z","updatedAt":"2019-10-10T19:49:42Z","buildingId":71848,"resources":[{"id":248154,"floorId":350427,"pdfUrl":"https://lbs-prod.s3.amazonaws.com/venues/f81bca97-18b7-42fb-9a61-aa5b7c2d0ea6/maps/MMC-M_GardenLevel.pdf","svgUrl":"https://lbs-prod.s3.amazonaws.com/venues/f81bca97-18b7-42fb-9a61-aa5b7c2d0ea6/maps/MMC-M_GardenLevel.svg","zoomLevel":1,"createdAt":"2019-10-10T19:50:56Z","updatedAt":"2019-10-10T19:50:56Z","externalId":248154}],"venueGuid":"102b8dfa-1e02-4199-abcd-8cd090fecb74","maxZoomLevel":1,"referencePoints":{"rotation":0.0,"topLeft":{"latitude":37.340806,"longitude":-120.468311},"topRight":{"latitude":37.340806,"longitude":-120.466473},"bottomLeft":{"latitude":37.338915,"longitude":-120.468311},"bottomRight":{"latitude":37.338915,"longitude":-120.466473},"portal":{"topRight":{"latitude":37.340806,"longitude":-120.466473},"bottomLeft":{"latitude":37.338915,"longitude":-120.468311}}},"externalId":350427,"scalePct":100,"isDefault":false},{"id":350428,"name":"Second Floor","originalMapUrl":null,"level":2,"isOutdoor":false,"width":0.0,"height":0.0,"offsetX":0,"offsetY":0,"locationMapHierarchy":"Mercy Medical Center Merced>Mercy Medical Center Merced Building>Second Floor","createdAt":"2019-10-10T19:49:42Z","updatedAt":"2019-10-10T19:49:42Z","buildingId":71848,"resources":[{"id":248155,"floorId":350428,"pdfUrl":"https://lbs-prod.s3.amazonaws.com/venues/f81bca97-18b7-42fb-9a61-aa5b7c2d0ea6/maps/MMC-M_SecondFloor2.pdf","svgUrl":"https://lbs-prod.s3.amazonaws.com/venues/f81bca97-18b7-42fb-9a61-aa5b7c2d0ea6/maps/MMC-M_SecondFloor.svg","zoomLevel":1,"createdAt":"2019-10-10T19:50:56Z","updatedAt":"2019-10-10T19:50:56Z","externalId":248155}],"venueGuid":"102b8dfa-1e02-4199-abcd-8cd090fecb74","maxZoomLevel":1,"referencePoints":{"rotation":0.0,"topLeft":{"latitude":37.340426,"longitude":-120.467758},"topRight":{"latitude":37.340426,"longitude":-120.466576},"bottomLeft":{"latitude":37.33921,"longitude":-120.467758},"bottomRight":{"latitude":37.33921,"longitude":-120.466576},"portal":{"topRight":{"latitude":37.340426,"longitude":-120.466576},"bottomLeft":{"latitude":37.33921,"longitude":-120.467758}}},"externalId":350428,"scalePct":100,"isDefault":false},{"id":350429,"name":"Third Floor","originalMapUrl":null,"level":3,"isOutdoor":false,"width":0.0,"height":0.0,"offsetX":0,"offsetY":0,"locationMapHierarchy":"Mercy Medical Center Merced>Mercy Medical Center Merced Building>Third Floor","createdAt":"2019-10-10T19:49:42Z","updatedAt":"2019-10-10T19:49:42Z","buildingId":71848,"resources":[{"id":248156,"floorId":350429,"pdfUrl":"https://lbs-prod.s3.amazonaws.com/venues/f81bca97-18b7-42fb-9a61-aa5b7c2d0ea6/maps/MMC-M_ThirdFloor3.pdf","svgUrl":"https://lbs-prod.s3.amazonaws.com/venues/f81bca97-18b7-42fb-9a61-aa5b7c2d0ea6/maps/MMC-M_ThirdFloor3.svg","zoomLevel":1,"createdAt":"2019-10-10T19:50:56Z","updatedAt":"2019-10-10T19:50:56Z","externalId":248156}],"venueGuid":"102b8dfa-1e02-4199-abcd-8cd090fecb74","maxZoomLevel":1,"referencePoints":{"rotation":0.0,"topLeft":{"latitude":37.340424,"longitude":-120.467758},"topRight":{"latitude":37.340424,"longitude":-120.466576},"bottomLeft":{"latitude":37.339208,"longitude":-120.467758},"bottomRight":{"latitude":37.339208,"longitude":-120.466576},"portal":{"topRight":{"latitude":37.340424,"longitude":-120.466576},"bottomLeft":{"latitude":37.339208,"longitude":-120.467758}}},"externalId":350429,"scalePct":100,"isDefault":false},{"id":350430,"name":"Fourth Floor","originalMapUrl":null,"level":4,"isOutdoor":false,"width":0.0,"height":0.0,"offsetX":0,"offsetY":0,"locationMapHierarchy":"Mercy Medical Center Merced>Mercy Medical Center Merced Building>Fourth Floor","createdAt":"2019-10-10T19:49:42Z","updatedAt":"2019-10-10T19:49:42Z","buildingId":71848,"resources":[{"id":248157,"floorId":350430,"pdfUrl":"https://lbs-prod.s3.amazonaws.com/venues/f81bca97-18b7-42fb-9a61-aa5b7c2d0ea6/maps/MMC-M_FourthFloor4.pdf","svgUrl":"https://lbs-prod.s3.amazonaws.com/venues/f81bca97-18b7-42fb-9a61-aa5b7c2d0ea6/maps/MMC-M_FourthFloor4.svg","zoomLevel":1,"createdAt":"2019-10-10T19:50:56Z","updatedAt":"2019-10-10T19:50:56Z","externalId":248157}],"venueGuid":"102b8dfa-1e02-4199-abcd-8cd090fecb74","maxZoomLevel":1,"referencePoints":{"rotation":0.0,"topLeft":{"latitude":37.340426,"longitude":-120.46776},"topRight":{"latitude":37.340426,"longitude":-120.466578},"bottomLeft":{"latitude":37.33921,"longitude":-120.46776},"bottomRight":{"latitude":37.33921,"longitude":-120.466578},"portal":{"topRight":{"latitude":37.340426,"longitude":-120.466578},"bottomLeft":{"latitude":37.33921,"longitude":-120.46776}}},"externalId":350430,"scalePct":100,"isDefault":false},{"id":350431,"name":"Fifth Floor","originalMapUrl":null,"level":5,"isOutdoor":false,"width":0.0,"height":0.0,"offsetX":0,"offsetY":0,"locationMapHierarchy":"Mercy Medical Center Merced>Mercy Medical Center Merced Building>Fifth Floor","createdAt":"2019-10-10T19:49:42Z","updatedAt":"2019-10-10T19:49:42Z","buildingId":71848,"resources":[{"id":248158,"floorId":350431,"pdfUrl":"https://lbs-prod.s3.amazonaws.com/venues/f81bca97-18b7-42fb-9a61-aa5b7c2d0ea6/maps/MMC-M_FifthFloor5.pdf","svgUrl":"https://lbs-prod.s3.amazonaws.com/venues/f81bca97-18b7-42fb-9a61-aa5b7c2d0ea6/maps/MMC-M_FifthFloor5.svg","zoomLevel":1,"createdAt":"2019-10-10T19:50:56Z","updatedAt":"2019-10-10T19:50:56Z","externalId":248158}],"venueGuid":"102b8dfa-1e02-4199-abcd-8cd090fecb74","maxZoomLevel":1,"referencePoints":{"rotation":0.0,"topLeft":{"latitude":37.340417,"longitude":-120.46775},"topRight":{"latitude":37.340417,"longitude":-120.466568},"bottomLeft":{"latitude":37.339201,"longitude":-120.46775},"bottomRight":{"latitude":37.339201,"longitude":-120.466568},"portal":{"topRight":{"latitude":37.340417,"longitude":-120.466568},"bottomLeft":{"latitude":37.339201,"longitude":-120.46775}}},"externalId":350431,"scalePct":100,"isDefault":false},{"id":350432,"name":"Sixth Floor","originalMapUrl":null,"level":6,"isOutdoor":false,"width":0.0,"height":0.0,"offsetX":0,"offsetY":0,"locationMapHierarchy":"Mercy Medical Center Merced>Mercy Medical Center Merced Building>Sixth Floor","createdAt":"2019-10-10T19:49:42Z","updatedAt":"2019-10-10T19:49:42Z","buildingId":71848,"resources":[{"id":248159,"floorId":350432,"pdfUrl":"https://lbs-prod.s3.amazonaws.com/venues/f81bca97-18b7-42fb-9a61-aa5b7c2d0ea6/maps/MMC-M_SixthFloor6.pdf","svgUrl":"https://lbs-prod.s3.amazonaws.com/venues/f81bca97-18b7-42fb-9a61-aa5b7c2d0ea6/maps/MMC-M_SixthFloor6.svg","zoomLevel":1,"createdAt":"2019-10-10T19:50:56Z","updatedAt":"2019-10-10T19:50:56Z","externalId":248159}],"venueGuid":"102b8dfa-1e02-4199-abcd-8cd090fecb74","maxZoomLevel":1,"referencePoints":{"rotation":0.0,"topLeft":{"latitude":37.340426,"longitude":-120.467766},"topRight":{"latitude":37.340426,"longitude":-120.466584},"bottomLeft":{"latitude":37.33921,"longitude":-120.467766},"bottomRight":{"latitude":37.33921,"longitude":-120.466584},"portal":{"topRight":{"latitude":37.340426,"longitude":-120.466584},"bottomLeft":{"latitude":37.33921,"longitude":-120.467766}}},"externalId":350432,"scalePct":100,"isDefault":false},{"id":350433,"name":"Seventh Floor","originalMapUrl":null,"level":7,"isOutdoor":false,"width":0.0,"height":0.0,"offsetX":0,"offsetY":0,"locationMapHierarchy":"Mercy Medical Center Merced>Mercy Medical Center Merced Building>Seventh Floor","createdAt":"2019-10-10T19:49:42Z","updatedAt":"2019-10-10T19:49:42Z","buildingId":71848,"resources":[{"id":248160,"floorId":350433,"pdfUrl":"https://lbs-prod.s3.amazonaws.com/venues/f81bca97-18b7-42fb-9a61-aa5b7c2d0ea6/maps/MMC-M_SeventhFloor7.pdf","svgUrl":"https://lbs-prod.s3.amazonaws.com/venues/f81bca97-18b7-42fb-9a61-aa5b7c2d0ea6/maps/MMC-M_SeventhFloor7.svg","zoomLevel":1,"createdAt":"2019-10-10T19:50:56Z","updatedAt":"2019-10-10T19:50:56Z","externalId":248160}],"venueGuid":"102b8dfa-1e02-4199-abcd-8cd090fecb74","maxZoomLevel":1,"referencePoints":{"rotation":0.0,"topLeft":{"latitude":37.34042,"longitude":-120.467752},"topRight":{"latitude":37.34042,"longitude":-120.46657},"bottomLeft":{"latitude":37.339203,"longitude":-120.467752},"bottomRight":{"latitude":37.339203,"longitude":-120.46657},"portal":{"topRight":{"latitude":37.34042,"longitude":-120.46657},"bottomLeft":{"latitude":37.339203,"longitude":-120.467752}}},"externalId":350433,"scalePct":100,"isDefault":false}],"venueGuid":"102b8dfa-1e02-4199-abcd-8cd090fecb74","location":{"latitude":37.339977,"longitude":-120.467296},"externalId":71848}