{"id":71834,"campusId":51084,"name":"Glendale Memorial Hospital and Health Center","latitude":34.128057,"longitude":-118.256859,"streetAddress":"1420 S Central Ave, Glendale, CA 91204, United States","createdAt":"2019-10-10T19:49:41Z","updatedAt":"2019-10-10T19:49:41Z","floors":[{"id":350354,"name":"Basement Floor","originalMapUrl":null,"level":-1,"isOutdoor":false,"width":0.0,"height":0.0,"offsetX":0,"offsetY":0,"locationMapHierarchy":"Glendale Memorial Hospital and Health Center>Glendale Memorial Hospital and Health Center Building>Basement Floor","createdAt":"2019-10-10T19:49:41Z","updatedAt":"2019-10-10T19:49:41Z","buildingId":71834,"resources":[{"id":248081,"floorId":350354,"pdfUrl":"https://lbs-prod.s3.amazonaws.com/venues/c9a1e964-07cd-4313-a55a-910ac9b9ab04/maps/350354/Basement_Floor_GMHHC.pdf","svgUrl":"https://lbs-prod.s3.amazonaws.com/venues/c9a1e964-07cd-4313-a55a-910ac9b9ab04/maps/350354/Basement_Floor_GMHHC.svg","zoomLevel":1,"createdAt":"2019-10-10T19:50:56Z","updatedAt":"2019-10-10T19:50:56Z","externalId":248081}],"venueGuid":"102b8dfa-1e02-4199-abcd-8cd090fecb74","maxZoomLevel":1,"referencePoints":{"rotation":0.0,"topLeft":{"latitude":34.129129,"longitude":-118.257759},"topRight":{"latitude":34.129129,"longitude":-118.255625},"bottomLeft":{"latitude":34.126843,"longitude":-118.257759},"bottomRight":{"latitude":34.126843,"longitude":-118.255625},"portal":{"topRight":{"latitude":34.129129,"longitude":-118.255625},"bottomLeft":{"latitude":34.126843,"longitude":-118.257759}}},"externalId":350354,"scalePct":100,"isDefault":false},{"id":350355,"name":"First Floor","originalMapUrl":null,"level":1,"isOutdoor":false,"width":0.0,"height":0.0,"offsetX":0,"offsetY":0,"locationMapHierarchy":"Glendale Memorial Hospital and Health Center>Glendale Memorial Hospital and Health Center>First Floor","createdAt":"2019-10-10T19:49:41Z","updatedAt":"2019-10-10T19:49:41Z","buildingId":71834,"resources":[{"id":248082,"floorId":350355,"pdfUrl":"https://lbs-prod.s3.amazonaws.com/venues/c9a1e964-07cd-4313-a55a-910ac9b9ab04/maps/350355/First_Floor_GMHHC.pdf","svgUrl":"https://lbs-prod.s3.amazonaws.com/venues/c9a1e964-07cd-4313-a55a-910ac9b9ab04/maps/350355/First_Floor_GMHHC.svg","zoomLevel":1,"createdAt":"2019-10-10T19:50:56Z","updatedAt":"2019-10-10T19:50:56Z","externalId":248082}],"venueGuid":"102b8dfa-1e02-4199-abcd-8cd090fecb74","maxZoomLevel":1,"referencePoints":{"rotation":360.0,"topLeft":{"latitude":34.129522,"longitude":-118.258243},"topRight":{"latitude":34.129522,"longitude":-118.254404},"bottomLeft":{"latitude":34.12541,"longitude":-118.258243},"bottomRight":{"latitude":34.12541,"longitude":-118.254404},"portal":{"topRight":{"latitude":34.129522,"longitude":-118.254404},"bottomLeft":{"latitude":34.12541,"longitude":-118.258243}}},"externalId":350355,"scalePct":100,"isDefault":false},{"id":350356,"name":"Second Floor","originalMapUrl":null,"level":2,"isOutdoor":false,"width":0.0,"height":0.0,"offsetX":0,"offsetY":0,"locationMapHierarchy":"Glendale Memorial Hospital and Health Center>Glendale Memorial Hospital and Health Center>Second Floor","createdAt":"2019-10-10T19:49:41Z","updatedAt":"2019-10-10T19:49:41Z","buildingId":71834,"resources":[{"id":248083,"floorId":350356,"pdfUrl":"https://lbs-prod.s3.amazonaws.com/venues/c9a1e964-07cd-4313-a55a-910ac9b9ab04/maps/350356/Second_Floor_GMHHC.pdf","svgUrl":"https://lbs-prod.s3.amazonaws.com/venues/c9a1e964-07cd-4313-a55a-910ac9b9ab04/maps/350356/Second_Floor_GMHHC.svg","zoomLevel":1,"createdAt":"2019-10-10T19:50:56Z","updatedAt":"2019-10-10T19:50:56Z","externalId":248083}],"venueGuid":"102b8dfa-1e02-4199-abcd-8cd090fecb74","maxZoomLevel":1,"referencePoints":{"rotation":0.0,"topLeft":{"latitude":34.128769,"longitude":-118.257694},"topRight":{"latitude":34.128769,"longitude":-118.25638},"bottomLeft":{"latitude":34.127362,"longitude":-118.257694},"bottomRight":{"latitude":34.127362,"longitude":-118.25638},"portal":{"topRight":{"latitude":34.128769,"longitude":-118.25638},"bottomLeft":{"latitude":34.127362,"longitude":-118.257694}}},"externalId":350356,"scalePct":100,"isDefault":false},{"id":350357,"name":"Third Floor","originalMapUrl":null,"level":3,"isOutdoor":false,"width":0.0,"height":0.0,"offsetX":0,"offsetY":0,"locationMapHierarchy":"Glendale Memorial Hospital and Health Center>Glendale Memorial Hospital and Health Center Building>Third Floor","createdAt":"2019-10-10T19:49:41Z","updatedAt":"2019-10-10T19:49:41Z","buildingId":71834,"resources":[{"id":248084,"floorId":350357,"pdfUrl":"https://lbs-prod.s3.amazonaws.com/venues/c9a1e964-07cd-4313-a55a-910ac9b9ab04/maps/350357/Third_Floor_GMHHC.pdf","svgUrl":"https://lbs-prod.s3.amazonaws.com/venues/c9a1e964-07cd-4313-a55a-910ac9b9ab04/maps/350357/Third_Floor_GMHHC.svg","zoomLevel":1,"createdAt":"2019-10-10T19:50:56Z","updatedAt":"2019-10-10T19:50:56Z","externalId":248084}],"venueGuid":"102b8dfa-1e02-4199-abcd-8cd090fecb74","maxZoomLevel":1,"referencePoints":{"rotation":0.0,"topLeft":{"latitude":34.128782,"longitude":-118.25774},"topRight":{"latitude":34.128782,"longitude":-118.256296},"bottomLeft":{"latitude":34.127235,"longitude":-118.25774},"bottomRight":{"latitude":34.127235,"longitude":-118.256296},"portal":{"topRight":{"latitude":34.128782,"longitude":-118.256296},"bottomLeft":{"latitude":34.127235,"longitude":-118.25774}}},"externalId":350357,"scalePct":100,"isDefault":false},{"id":350358,"name":"Fourth Floor","originalMapUrl":null,"level":4,"isOutdoor":false,"width":0.0,"height":0.0,"offsetX":0,"offsetY":0,"locationMapHierarchy":"Glendale Memorial Hospital and Health Center>Glendale Memorial Hospital and Health Center Building>Fourth Floor","createdAt":"2019-10-10T19:49:41Z","updatedAt":"2019-10-10T19:49:41Z","buildingId":71834,"resources":[{"id":248085,"floorId":350358,"pdfUrl":"https://lbs-prod.s3.amazonaws.com/venues/c9a1e964-07cd-4313-a55a-910ac9b9ab04/maps/350358/Fourth_Floor_GMHHC.pdf","svgUrl":"https://lbs-prod.s3.amazonaws.com/venues/c9a1e964-07cd-4313-a55a-910ac9b9ab04/maps/350358/Fourth_Floor_GMHHC.svg","zoomLevel":1,"createdAt":"2019-10-10T19:50:56Z","updatedAt":"2019-10-10T19:50:56Z","externalId":248085}],"venueGuid":"102b8dfa-1e02-4199-abcd-8cd090fecb74","maxZoomLevel":1,"referencePoints":{"rotation":0.0,"topLeft":{"latitude":34.128765,"longitude":-118.257726},"topRight":{"latitude":34.128765,"longitude":-118.256347},"bottomLeft":{"latitude":34.127288,"longitude":-118.257726},"bottomRight":{"latitude":34.127288,"longitude":-118.256347},"portal":{"topRight":{"latitude":34.128765,"longitude":-118.256347},"bottomLeft":{"latitude":34.127288,"longitude":-118.257726}}},"externalId":350358,"scalePct":100,"isDefault":false},{"id":350359,"name":"Fifth Floor","originalMapUrl":null,"level":5,"isOutdoor":false,"width":0.0,"height":0.0,"offsetX":0,"offsetY":0,"locationMapHierarchy":"Glendale Memorial Hospital and Health Center>Glendale Memorial Hospital and Health Center Building>Fifth Floor","createdAt":"2019-10-10T19:49:42Z","updatedAt":"2019-10-10T19:49:42Z","buildingId":71834,"resources":[{"id":248086,"floorId":350359,"pdfUrl":"https://lbs-prod.s3.amazonaws.com/venues/c9a1e964-07cd-4313-a55a-910ac9b9ab04/maps/350359/Fifth_Floor_GMHHC.pdf","svgUrl":"https://lbs-prod.s3.amazonaws.com/venues/c9a1e964-07cd-4313-a55a-910ac9b9ab04/maps/350359/Fifth_Floor_GMHHC.svg","zoomLevel":1,"createdAt":"2019-10-10T19:50:56Z","updatedAt":"2019-10-10T19:50:56Z","externalId":248086}],"venueGuid":"102b8dfa-1e02-4199-abcd-8cd090fecb74","maxZoomLevel":1,"referencePoints":{"rotation":0.0,"topLeft":{"latitude":34.128805,"longitude":-118.257743},"topRight":{"latitude":34.128805,"longitude":-118.256299},"bottomLeft":{"latitude":34.127258,"longitude":-118.257743},"bottomRight":{"latitude":34.127258,"longitude":-118.256299},"portal":{"topRight":{"latitude":34.128805,"longitude":-118.256299},"bottomLeft":{"latitude":34.127258,"longitude":-118.257743}}},"externalId":350359,"scalePct":100,"isDefault":false},{"id":350360,"name":"Sixth Floor","originalMapUrl":null,"level":6,"isOutdoor":false,"width":0.0,"height":0.0,"offsetX":0,"offsetY":0,"locationMapHierarchy":"Glendale Memorial Hospital and Health Center>Glendale Memorial Hospital and Health Center Building>Sixth Floor","createdAt":"2019-10-10T19:49:42Z","updatedAt":"2019-10-10T19:49:42Z","buildingId":71834,"resources":[{"id":248087,"floorId":350360,"pdfUrl":"https://lbs-prod.s3.amazonaws.com/venues/c9a1e964-07cd-4313-a55a-910ac9b9ab04/maps/350360/Sixth_Floor_GMHHC.pdf","svgUrl":"https://lbs-prod.s3.amazonaws.com/venues/c9a1e964-07cd-4313-a55a-910ac9b9ab04/maps/350360/Sixth_Floor_GMHHC.svg","zoomLevel":1,"createdAt":"2019-10-10T19:50:56Z","updatedAt":"2019-10-10T19:50:56Z","externalId":248087}],"venueGuid":"102b8dfa-1e02-4199-abcd-8cd090fecb74","maxZoomLevel":1,"referencePoints":{"rotation":0.0,"topLeft":{"latitude":34.128751,"longitude":-118.257936},"topRight":{"latitude":34.128751,"longitude":-118.256622},"bottomLeft":{"latitude":34.127344,"longitude":-118.257936},"bottomRight":{"latitude":34.127344,"longitude":-118.256622},"portal":{"topRight":{"latitude":34.128751,"longitude":-118.256622},"bottomLeft":{"latitude":34.127344,"longitude":-118.257936}}},"externalId":350360,"scalePct":100,"isDefault":false},{"id":350361,"name":"Seventh Floor","originalMapUrl":null,"level":7,"isOutdoor":false,"width":0.0,"height":0.0,"offsetX":0,"offsetY":0,"locationMapHierarchy":"Glendale Memorial Hospital and Health Center>Glendale Memorial Hospital and Health Center Building>Seventh Floor","createdAt":"2019-10-10T19:49:42Z","updatedAt":"2019-10-10T19:49:42Z","buildingId":71834,"resources":[{"id":248088,"floorId":350361,"pdfUrl":"https://lbs-prod.s3.amazonaws.com/venues/c9a1e964-07cd-4313-a55a-910ac9b9ab04/maps/350361/Seventh_Floor_GMHHC.pdf","svgUrl":"https://lbs-prod.s3.amazonaws.com/venues/c9a1e964-07cd-4313-a55a-910ac9b9ab04/maps/350361/Seventh_Floor_GMHHC.svg","zoomLevel":1,"createdAt":"2019-10-10T19:50:56Z","updatedAt":"2019-10-10T19:50:56Z","externalId":248088}],"venueGuid":"102b8dfa-1e02-4199-abcd-8cd090fecb74","maxZoomLevel":1,"referencePoints":{"rotation":0.0,"topLeft":{"latitude":34.128685,"longitude":-118.25774},"topRight":{"latitude":34.128685,"longitude":-118.256919},"bottomLeft":{"latitude":34.127805,"longitude":-118.25774},"bottomRight":{"latitude":34.127805,"longitude":-118.256919},"portal":{"topRight":{"latitude":34.128685,"longitude":-118.256919},"bottomLeft":{"latitude":34.127805,"longitude":-118.25774}}},"externalId":350361,"scalePct":100,"isDefault":false},{"id":350362,"name":"Eighth Floor","originalMapUrl":null,"level":8,"isOutdoor":false,"width":0.0,"height":0.0,"offsetX":0,"offsetY":0,"locationMapHierarchy":"Glendale Memorial Hospital and Health Center>Glendale Memorial Hospital and Health Center Building>Eighth Floor","createdAt":"2019-10-10T19:49:42Z","updatedAt":"2019-10-10T19:49:42Z","buildingId":71834,"resources":[{"id":248089,"floorId":350362,"pdfUrl":"https://lbs-prod.s3.amazonaws.com/venues/c9a1e964-07cd-4313-a55a-910ac9b9ab04/maps/350362/Eighth_Floor_GMHHC.pdf","svgUrl":"https://lbs-prod.s3.amazonaws.com/venues/c9a1e964-07cd-4313-a55a-910ac9b9ab04/maps/350362/Eighth_Floor_GMHHC.svg","zoomLevel":1,"createdAt":"2019-10-10T19:50:56Z","updatedAt":"2019-10-10T19:50:56Z","externalId":248089}],"venueGuid":"102b8dfa-1e02-4199-abcd-8cd090fecb74","maxZoomLevel":1,"referencePoints":{"rotation":0.0,"topLeft":{"latitude":34.128685,"longitude":-118.257737},"topRight":{"latitude":34.128685,"longitude":-118.256916},"bottomLeft":{"latitude":34.127806,"longitude":-118.257737},"bottomRight":{"latitude":34.127806,"longitude":-118.256916},"portal":{"topRight":{"latitude":34.128685,"longitude":-118.256916},"bottomLeft":{"latitude":34.127806,"longitude":-118.257737}}},"externalId":350362,"scalePct":100,"isDefault":false}],"venueGuid":"102b8dfa-1e02-4199-abcd-8cd090fecb74","location":{"latitude":34.128057,"longitude":-118.256859},"externalId":71834}